{
  "vid": "BV16K411z7tS",
  "vDate": "2022-12-18",
  "vName": "骑行四处漂泊的我，突然阳了全身疼痛，只能躺在宾馆休息",
  "vDistanceKm": 84.8,
  "vClips": [
    {
      "name": "里凤城1小时废弃房扎营",
      "date": "2022-12-16",
      "time": "10:00:00",
      "type": "bicycle",
      "coordinates": [
        123.97658214184202,
        40.58026331676996
      ],
      "vTime": 0
    },
    {
      "name": "到达凤城吃面",
      "date": "2022-12-16",
      "time": "12:00:00",
      "type": "bicycle",
      "coordinates": [
        124.06340773577483,
        40.460262310158555
      ],
      "vTime": 43
    },
    {
      "name": "凤凰山景区",
      "date": "2022-12-16",
      "time": "14:00:00",
      "type": "bicycle",
      "coordinates": [
        124.0621170245916,
        40.42824901175706
      ],
      "vTime": 103
    },
    {
      "name": "凤凰山景区另一侧",
      "date": "2022-12-16",
      "time": "15:00:00",
      "type": "bicycle",
      "coordinates": [
        124.07935342535995,
        40.36118034233749
      ],
      "vTime": 127
    },
    {
      "name": "到达丹东郊区",
      "date": "2022-12-16",
      "time": "17:30:00",
      "type": "bicycle",
      "coordinates": [
        124.29758780325176,
        40.18241631708449
      ],
      "vTime": 153
    },
    {
      "name": "丹东市抗美援朝烈士陵园",
      "date": "2022-12-16",
      "time": "18:30:00",
      "type": "bicycle",
      "coordinates": [
        124.3749189928202,
        40.135937234991104
      ],
      "vTime": 192
    },
    {
      "name": "随便找个宾馆住下阳了",
      "date": "2022-12-18",
      "time": "10:00:00",
      "type": "campsite",
      "coordinates": [
        124.38511113393224,
        40.1271608160292
      ],
      "vTime": 212
    }
  ]
}
