{
  "vid": "BV1BM411z7sq",
  "vDate": "2022-12-13",
  "vName": "南方青年冬季骑行东北，零下十度河边露营煮火锅，帐篷内外温差34度很舒服",
  "vDistanceKm": 31.1,
  "vClips": [
    {
      "name": "歪头山村铁皮房起床",
      "date": "2022-12-12",
      "time": "10:00:00",
      "type": "bicycle",
      "coordinates": [
        123.64676171372491,
        41.500898588791756
      ],
      "vTime": 0
    },
    {
      "name": "沈丹客运专线等红绿灯",
      "date": "2022-12-12",
      "time": "12:00:00",
      "type": "bicycle",
      "coordinates": [
        123.7347884809979,
        41.42807495476069
      ],
      "vTime": 223
    },
    {
      "name": "本溪会展中心",
      "date": "2022-12-12",
      "time": "13:00:00",
      "type": "bicycle",
      "coordinates": [
        123.67559230870006,
        41.488540101668065
      ],
      "vTime": 256
    },
    {
      "name": "到达本溪市",
      "date": "2022-12-12",
      "time": "16:00:00",
      "type": "bicycle",
      "coordinates": [
        123.79239333985811,
        41.31098390676161
      ],
      "vTime": 533
    },
    {
      "name": "本溪市太子河边住宿",
      "date": "2022-12-12",
      "time": "17:00:00",
      "type": "campsite",
      "coordinates": [
        123.78562388779187,
        41.31051170007203
      ],
      "vTime": 752
    }
  ]
}
