{
  "vid": "BV1He4y1M7c3",
  "vDate": "2022-12-17",
  "vName": "骑行去漠河，河流冰封天寒地冻，找到一个废弃房子还有炕睡太棒了",
  "vClips": [
    {
      "name": "南芬英雄儿女",
      "date": "2022-12-16",
      "type": "bicycle",
      "coordinates": [
        123.7477174562946,
        41.106508554064334
      ],
      "vTime": 0
    },
    {
      "name": "废弃房",
      "date": "2022-12-16",
      "type": "campsite",
      "coordinates": [
        123.74289413317052,
        41.01664411598861
      ],
      "vTime": 0
    },
    {
      "name": "本溪鹏程化工有限公司",
      "date": "2022-12-16",
      "type": "bicycle",
      "coordinates": [
        123.90512201996034,
        40.88532527906813
      ],
      "vTime": 0
    },
    {
      "name": "河道滑冰",
      "date": "2022-12-16",
      "type": "bicycle",
      "coordinates": [
        123.98337561817794,
        40.68787356793726
      ],
      "vTime": 0
    },
    {
      "name": "路边扎营",
      "date": "2022-12-16",
      "type": "campsite",
      "coordinates": [
        124.0485234422012,
        40.477866176718635
      ],
      "vTime": 0
    }
  ]
}
