{
  "vid": "BV1He4y1M7c3",
  "vDate": "2022-12-17",
  "vName": "骑行去漠河，河流冰封天寒地冻，找到一个废弃房子还有炕睡太棒了",
  "vDistanceKm": 104.4,
  "vClips": [
    {
      "name": "汞洞堡子附近停车场起床出发",
      "date": "2022-12-14",
      "time": "10:00:00",
      "type": "bicycle",
      "coordinates": [
        123.76066531826564,
        41.212561193650686
      ],
      "vTime": 0
    },
    {
      "name": "南芬区睡桥底",
      "date": "2022-12-14",
      "time": "17:00:00",
      "type": "campsite",
      "coordinates": [
        123.7477174562946,
        41.106508554064334
      ],
      "vTime": 320
    },
    {
      "name": "南芬区桥底起床",
      "date": "2022-12-15",
      "time": "12:00:00",
      "type": "bicycle",
      "coordinates": [
        123.7477174562946,
        41.106508554064334
      ],
      "vTime": 320
    },
    {
      "name": "到达丹东界",
      "date": "2022-12-15",
      "time": "14:00:00",
      "type": "bicycle",
      "coordinates": [
        123.89875885417206,
        40.83437541368434
      ],
      "vTime": 398
    },
    {
      "name": "河道滑冰",
      "date": "2022-12-15",
      "time": "15:00:00",
      "type": "bicycle",
      "coordinates": [
        123.98337561817794,
        40.68787356793726
      ],
      "vTime": 660
    },
    {
      "name": "里凤城1小时废弃房扎营",
      "date": "2022-12-15",
      "time": "18:00:00",
      "type": "campsite",
      "coordinates": [
        123.97658214184202,
        40.58026331676996
      ],
      "vTime": 756
    }
  ]
}
