{
  "vid": "BV1hd4y177xK",
  "vDate": "2023-01-03",
  "vName": "冬季骑行东北，进入吉林电量耗尽，入住雪地小屋感觉很温馨",
  "vDistanceKm": 59.6,
  "vClips": [
    {
      "name": "回走浑江大桥下水管起床出发",
      "date": "2023-01-01",
      "time": "10:00:00",
      "type": "bicycle",
      "coordinates": [
        125.31751107502595,
        40.94446094499085
      ],
      "vTime": 0
    },
    {
      "name": "又到达步达远镇",
      "date": "2022-01-01",
      "time": "11:00:00",
      "type": "bicycle",
      "coordinates": [
        125.33551224146117,
        40.93354172227822
      ],
      "vTime": 107
    },
    {
      "name": "景区售票处房子",
      "date": "2022-01-01",
      "time": "17:00:00",
      "type": "bicycle",
      "coordinates": [
        125.57387981526887,
        40.889121211661234
      ],
      "vTime": 586
    },
    {
      "name": "过吉林辽宁省界线(浑江口大桥)",
      "date": "2023-01-01",
      "time": "17:30:00",
      "type": "bicycle",
      "coordinates": [
        125.62387164992839,
        40.9035640223407
      ],
      "vTime": 637
    },
    {
      "name": "去村庄(大路镇)买了点东西",
      "date": "2023-01-01",
      "time": "18:00:00",
      "type": "bicycle",
      "coordinates": [
        125.7740984943822,
        40.99523344836547
      ],
      "vTime": 703
    },
    {
      "name": "又回景区售票处房子",
      "date": "2023-01-01",
      "time": "19:00:00",
      "type": "campsite",
      "coordinates": [
        125.57387981526887,
        40.889121211661234
      ],
      "vTime": 803
    },
    {
      "name": "景区售票处房子起床",
      "date": "2023-01-02",
      "time": "10:00:00",
      "type": "bicycle",
      "coordinates": [
        125.57387981526887,
        40.889121211661234
      ],
      "vTime": 1478
    },
    {
      "name": "到大路镇住宾馆30块钱",
      "date": "2023-01-02",
      "time": "14:00:00",
      "type": "campsite",
      "coordinates": [
        125.7740984943822,
        40.99523344836547
      ],
      "vTime": 1540
    }
  ]
}
