{
  "vid": "BV1fM411E7jD",
  "vName": "骑行穿越大兴安岭第一天，没地方住被迫雪地露营，感觉还行",
  "vDate": "2023-02-19",
  "vDistanceKm": 79.4,
  "vClips": [
    {
      "coordinates": [
        125.23216921601198,
        49.175064068445096
      ],
      "name": "收拾好吃中饭出发",
      "type": "bicycle",
      "date": "2023-02-17",
      "time": "10:00:00",
      "vTime": 10
    },
    {
      "coordinates": [
        125.21250074880055,
        49.18694705764295
      ],
      "name": "到达嫩江钢制浮桥上",
      "type": "bicycle",
      "date": "2023-02-17",
      "time": "12:00:00",
      "vTime": 66
    },
    {
      "coordinates": [
        125.21250074880055,
        49.18694705764295
      ],
      "name": "到达嫩江钢制浮桥上",
      "type": "bicycle",
      "date": "2023-02-17",
      "time": "12:00:00",
      "vTime": 66
    },
    {
      "coordinates": [
        125.20821315863145,
        49.188094271161646
      ],
      "name": "打算走小路",
      "type": "bicycle",
      "date": "2023-02-17",
      "time": "12:30:00",
      "vTime": 179
    },
    {
      "coordinates": [
        124.98273422120377,
        49.5085905195414
      ],
      "name": "到达红彦镇",
      "type": "bicycle",
      "date": "2023-02-17",
      "time": "15:00:00",
      "vTime": 600
    },
    {
      "coordinates": [
        124.69767436170582,
        49.63142414576939
      ],
      "name": "到达达尔滨村附近住宿",
      "type": "campsite",
      "date": "2023-02-17",
      "time": "18:00:00",
      "vTime": 786
    }
  ]
}
