{
  "vid": "BV18M411h7J9",
  "vDate": "2023-01-12",
  "vName": "冬季骑行东北，林区找到一个废弃房还带炕，烧起土炕睡得",
  "vDistanceKm": 16.3,
  "vClips": [
    {
      "name": "离开临江市起床",
      "date": "2023-01-11",
      "time": "10:00:00",
      "type": "bicycle",
      "coordinates": [
        126.90823395351208,
        41.80071322455066
      ],
      "vTime": 0
    },
    {
      "name": "改变计划不走331国道",
      "date": "2023-01-11",
      "time": "10:00:00",
      "type": "bicycle",
      "coordinates": [
        126.91474101821183,
        41.80565059132124
      ],
      "vTime": 44
    },
    {
      "name": "吃碗面再走",
      "date": "2023-01-11",
      "time": "12:00:00",
      "type": "bicycle",
      "coordinates": [
        126.92199402406834,
        41.81096985677067
      ],
      "vTime": 86
    },
    {
      "name": "从临江前往白山市",
      "date": "2023-01-11",
      "time": "14:00:00",
      "type": "bicycle",
      "coordinates": [
        126.90349767043614,
        41.82242994903507
      ],
      "vTime": 139
    },
    {
      "name": "林区废弃房子住宿",
      "date": "2023-01-11",
      "time": "20:00:00",
      "type": "campsite",
      "coordinates": [
        126.83011476660926,
        41.92117881958234
      ],
      "vTime": 421
    }
  ]
}
