{
  "vid": "BV1yG4y1P7ey",
  "vName": "骑行前往大兴安岭，夜宿路边铁皮房，温度太低充电宝都冻坏了",
  "vDate": "2023-02-16",
  "vDistanceKm": 117.1,
  "vClips": [
    {
      "coordinates": [
        126.14677702668757,
        48.722108154504525
      ],
      "name": "老黑山景区起床",
      "type": "bicycle",
      "date": "2023-02-14",
      "time": "10:00:00",
      "vTime": 0
    },
    {
      "coordinates": [
        126.04139486105726,
        48.706662213135814
      ],
      "name": "大庆油田农场",
      "type": "bicycle",
      "date": "2023-02-14",
      "time": "13:00:00",
      "vTime": 153
    },
    {
      "coordinates": [
        125.99149950541027,
        48.73603107630376
      ],
      "name": "格拉球山",
      "type": "bicycle",
      "date": "2023-02-14",
      "time": "14:00:00",
      "vTime": 459
    },
    {
      "coordinates": [
        126.01326533128292,
        48.7997791268684
      ],
      "name": "格拉球山农场部附近驻扎",
      "type": "campsite",
      "date": "2023-02-14",
      "time": "18:00:00",
      "vTime": 893
    },
    {
      "coordinates": [
        125.23216921601198,
        49.175064068445096
      ],
      "name": "没电了连夜骑到嫩江市住宿充电",
      "type": "campsite",
      "date": "2023-02-15",
      "time": "18:00:00",
      "vTime": 1578
    }
  ]
}
