{
  "vid": "BV1z24y137CU",
  "vName": "三十岁出身农村一无所有的我，用骑行改变了自己的人生，涅槃重生",
  "vDate": "2023-03-03",
  "vDistanceKm": 110.4,
  "vClips": [
    {
      "coordinates": [
        123.86175766386191,
        52.68229415053855
      ],
      "name": "盘古服务区起床",
      "type": "bicycle",
      "date": "2023-03-02",
      "time": "10:00:00",
      "vTime": 0
    },
    {
      "coordinates": [
        123.17578097323889,
        52.83435536721498
      ],
      "name": "到达阿木尔镇/额木尔河",
      "type": "bicycle",
      "date": "2023-03-02",
      "time": "18:00:00",
      "vTime": 400
    },
    {
      "coordinates": [
        122.59519725913356,
        52.942863867350866
      ],
      "name": "到达漠河入口拍照留念",
      "type": "bicycle",
      "date": "2023-03-02",
      "time": "20:00:00",
      "vTime": 587
    },
    {
      "coordinates": [
        122.52811885178431,
        52.96941668694032
      ],
      "name": "漠河舞厅",
      "type": "bicycle",
      "date": "2023-03-02",
      "time": "20:00:00",
      "vTime": 705
    },
    {
      "coordinates": [
        122.5252092123468,
        52.97274426339939
      ],
      "name": "住漠河宾馆",
      "type": "campsite",
      "date": "2023-03-02",
      "time": "20:00:00",
      "vTime": 982
    },
    {
      "coordinates": [
        122.5252092123468,
        52.97274426339939
      ],
      "name": "住漠河宾馆2",
      "type": "campsite",
      "date": "2023-03-03",
      "time": "20:00:00",
      "vTime": 1115
    }
  ]
}
