{
  "vid": "BV1KT411D7o7",
  "vName": "骑行去漠河，今天在停业景区露营，流浪生活虽苦但自由的感觉真好",
  "vDate": "2023-02-15",
  "vDistanceKm": 37.7,
  "vClips": [
    {
      "coordinates": [
        126.1927611330463,
        48.4759308459775
      ],
      "name": "起床晒睡袋",
      "type": "bicycle",
      "date": "2023-02-13",
      "time": "11:00:49",
      "vTime": 19
    },
    {
      "coordinates": [
        126.19991887707039,
        48.506763857635576
      ],
      "name": "遇到网友外卖小哥上厕所",
      "type": "bicycle",
      "date": "2023-02-13",
      "time": "12:00:00",
      "vTime": 177
    },
    {
      "coordinates": [
        126.1988548927306,
        48.5217754841253
      ],
      "name": "后悔昨晚应该来桥下露营的",
      "type": "bicycle",
      "date": "2023-02-13",
      "time": "12:30:00",
      "vTime": 306
    },
    {
      "coordinates": [
        126.13471188913417,
        48.64343838555476
      ],
      "name": "到达五大连池镇",
      "type": "bicycle",
      "date": "2023-02-13",
      "time": "15:30:00",
      "vTime": 621
    },
    {
      "coordinates": [
        126.14677702668757,
        48.722108154504525
      ],
      "name": "到达老黑山景区售票处路边警亭露营",
      "type": "campsite",
      "date": "2023-02-13",
      "time": "19:30:00",
      "vTime": 914
    }
  ]
}
