{
  "vid": "BV1q24y1r787",
  "vDate": "2023-01-23",
  "vName": "小城蛟河雪中露营过年，网友疯狂投喂感受到人间温暖，大年初一继续上路",
  "vClips": [
    {
      "name": "废弃饭店起床",
      "date": "2023-01-20",
      "time": "9:00:00",
      "type": "campsite",
      "coordinates": [
        127.25973927205945,
        43.44737370329938
      ],
      "vTime": 8
    },
    {
      "name": "废弃饭店出发",
      "date": "2023-01-20",
      "time": "10:00:00",
      "type": "bicycle",
      "coordinates": [
        127.25973927205945,
        43.44737370329938
      ],
      "vTime": 52
    },
    {
      "name": "到达蛟河市还有30km",
      "date": "2023-01-20",
      "time": "11:00:00",
      "type": "bicycle",
      "coordinates": [
        127.27607397211449,
        43.51303830649533
      ],
      "vTime": 66
    },
    {
      "name": "到达七间房隧道入口",
      "date": "2023-01-20",
      "time": "12:00:00",
      "type": "bicycle",
      "coordinates": [
        127.2845090388314,
        43.544692092365324
      ],
      "vTime": 140
    },
    {
      "name": "到达蛟河市",
      "date": "2023-01-20",
      "time": "15:00:00",
      "type": "bicycle",
      "coordinates": [
        127.30568996096099,
        43.703694569692374
      ],
      "vTime": 373
    },
    {
      "name": "住废弃宾馆门口",
      "date": "2023-01-20",
      "time": "20:00:00",
      "type": "campsite",
      "coordinates": [
        127.32703800348958,
        43.741244319014044
      ],
      "vTime": 571
    },
    {
      "name": "在废弃宾馆门口起床",
      "date": "2023-01-21",
      "time": "10:00:00",
      "type": "campsite",
      "coordinates": [
        127.32703800348958,
        43.741244319014044
      ],
      "vTime": 593
    },
    {
      "name": "被蛟河市网友投送吃的",
      "date": "2023-01-21",
      "time": "11:00:00",
      "type": "campsite",
      "coordinates": [
        127.32703800348958,
        43.741244319014044
      ],
      "vTime": 623
    },
    {
      "name": "舒兰与拉法山岔路口",
      "date": "2023-01-21",
      "time": "12:00:00",
      "type": "bicycle",
      "coordinates": [
        127.35832836807884,
        43.79106874603809
      ],
      "vTime": 700
    },
    {
      "name": "进入舒兰市内找到房子住下",
      "date": "2023-01-21",
      "time": "17:00:00",
      "type": "campsite",
      "coordinates": [
        127.27427938121036,
        44.044728851264125
      ],
      "vTime": 970
    }
  ]
}
